City_ID,City,Latitude,Longitude,Max Temperature,Humidity,Cloudiness,Wind Speed,Country,Date
0,jacareacanga,-6.22,-57.75,83.35,35,0,1.57,BR,1597444430
1,hamilton,39.18,-84.53,82.4,65,20,7.0,US,1597444251
2,hithadhoo,-0.6,73.08,82.04,75,89,8.63,MV,1597444260
3,chuy,-33.7,-53.46,52.59,92,76,6.04,UY,1597444434
4,punta arenas,-53.15,-70.92,33.8,80,90,4.7,CL,1597444435
5,mount isa,-20.73,139.5,64.4,39,0,5.82,AU,1597444436
6,grindavik,63.84,-22.43,50.0,93,77,10.29,IS,1597444437
7,haines junction,60.75,-137.51,58.95,57,100,2.42,CA,1597444439
8,sao joao da barra,-21.64,-41.05,75.2,78,9,23.04,BR,1597444440
9,bom jesus,-9.07,-44.36,78.42,43,5,4.27,BR,1597444442
10,vaini,-21.2,-175.2,75.2,64,20,13.87,TO,1597444443
11,half moon bay,37.46,-122.43,102.99,37,1,19.46,US,1597444444
12,fairbanks,64.84,-147.72,70.0,55,1,4.54,US,1597444446
13,cape town,-33.93,18.42,60.01,76,75,14.99,ZA,1597444447
14,airai,-8.93,125.41,60.66,66,0,2.86,TL,1597444448
15,narsaq,60.92,-46.05,53.6,71,75,5.82,GL,1597444450
16,dikson,73.51,80.55,44.33,96,96,15.41,RU,1597444451
17,sitka,57.05,-135.33,57.2,87,90,9.17,US,1597444452
18,albany,42.6,-73.97,84.99,60,78,1.01,US,1597444454
19,ucluelet,48.93,-125.55,68.0,68,20,13.87,CA,1597444223
20,rikitea,-23.12,-134.97,70.77,75,48,11.79,PF,1597444456
21,mataura,-46.19,168.86,39.99,91,1,3.0,NZ,1597444458
22,atuona,-9.8,-139.03,77.45,74,70,15.88,PF,1597444460
23,rudnichnyy,59.62,52.47,48.81,85,100,7.56,RU,1597444462
24,yellowknife,62.46,-114.35,60.8,63,75,19.46,CA,1597444463
25,port alfred,-33.59,26.89,55.26,73,0,6.51,ZA,1597444464
26,ambilobe,-13.2,49.05,71.33,74,83,3.67,MG,1597444465
27,constitucion,-35.33,-72.42,47.3,74,0,13.15,CL,1597444467
28,kaitangata,-46.28,169.85,44.01,70,2,3.0,NZ,1597444468
29,busselton,-33.65,115.33,55.0,88,35,12.77,AU,1597444470
30,coquimbo,-29.95,-71.34,55.4,62,0,9.17,CL,1597444471
31,vila franca do campo,37.72,-25.43,71.6,83,20,8.05,PT,1597444293
32,avarua,-21.21,-159.78,78.8,88,22,12.75,CK,1597444474
33,caxito,-8.58,13.66,71.6,83,75,3.36,AO,1597444476
34,kota bahru,6.13,102.24,77.0,94,20,3.36,MY,1597444206
35,lorengau,-2.02,147.27,82.36,74,93,3.74,PG,1597444479
36,carnarvon,-24.87,113.63,50.0,100,0,6.93,AU,1597444480
37,longyearbyen,78.22,15.64,43.72,72,96,10.76,SJ,1597444482
38,cassilandia,-19.11,-51.73,80.92,29,1,4.65,BR,1597444483
39,puerto ayora,-0.74,-90.35,77.0,69,20,18.34,EC,1597444486
40,ushuaia,-54.8,-68.3,35.6,92,75,17.22,AR,1597444487
41,nueva helvecia,-34.3,-57.23,57.0,76,84,5.99,UY,1597444489
42,tezu,27.92,96.17,75.51,84,96,2.59,IN,1597444490
43,kahului,20.89,-156.47,89.6,52,40,23.04,US,1597444261
44,bluff,-46.6,168.33,39.99,91,72,3.0,NZ,1597444493
45,adrar,20.5,-10.07,99.48,25,62,5.23,MR,1597444494
46,hobart,-42.88,147.33,50.0,100,75,6.93,AU,1597444393
47,hilo,19.73,-155.09,87.8,55,75,9.17,US,1597444398
48,san antonio,29.42,-98.49,105.01,21,1,9.17,US,1597444418
49,westport,41.14,-73.36,82.99,54,1,6.93,US,1597444503
50,ancud,-41.87,-73.82,42.01,80,40,12.75,CL,1597444505
51,sembe,1.65,14.58,72.23,87,96,1.81,CG,1597444506
52,esil,51.96,66.4,63.27,56,96,10.0,KZ,1597444507
53,hualmay,-11.1,-77.61,61.36,77,67,12.1,PE,1597444508
54,hermanus,-34.42,19.23,55.0,85,42,8.01,ZA,1597444510
55,alice springs,-23.7,133.88,46.4,52,0,12.28,AU,1597444421
56,mitsamiouli,-11.38,43.28,75.79,76,4,15.59,KM,1597444514
57,omboue,-1.57,9.26,74.46,84,100,9.78,GA,1597444515
58,isangel,-19.55,169.27,78.8,83,19,9.17,VU,1597444516
59,itarema,-2.92,-39.92,77.72,75,15,15.95,BR,1597444518
60,kattivakkam,13.22,80.32,82.4,78,75,3.36,IN,1597444519
61,olafsvik,64.89,-23.71,49.82,79,15,11.74,IS,1597444520
62,dubti,11.74,41.09,87.42,48,77,7.23,ET,1597444521
63,vostok,46.49,135.88,58.66,100,67,3.69,RU,1597444523
64,skibbereen,51.55,-9.27,62.6,93,90,5.82,IE,1597444524
65,mzimba,-11.9,33.6,57.61,65,33,8.41,MW,1597444525
66,dingle,11.0,122.67,77.97,88,90,2.21,PH,1597444527
67,butaritari,3.07,172.79,82.22,79,67,12.03,KI,1597444528
68,tilichiki,60.47,166.1,52.74,84,100,13.2,RU,1597444529
69,nikolskoye,59.7,30.79,60.8,72,40,4.47,RU,1597444530
70,port elizabeth,-33.92,25.57,50.0,87,0,5.82,ZA,1597444533
71,dzilam gonzalez,21.28,-88.93,86.88,64,17,9.46,MX,1597444534
72,torbay,47.67,-52.73,57.99,100,90,16.11,CA,1597444514
73,kapaa,22.08,-159.32,86.0,66,20,11.41,US,1597444404
74,lamu,-2.27,40.9,75.4,74,82,16.31,KE,1597444538
75,chitral,35.85,71.79,74.34,38,2,2.82,PK,1597444540
76,namatanai,-3.67,152.43,82.85,72,100,3.58,PG,1597444541
77,qaanaaq,77.48,-69.36,39.18,78,100,6.62,GL,1597444543
78,hervey bay,-25.3,152.85,70.0,84,42,3.0,AU,1597444544
79,san patricio,19.22,-104.7,89.6,75,40,11.41,MX,1597444545
80,cabedelo,-6.98,-34.83,73.4,88,20,6.93,BR,1597444546
81,clyde river,70.47,-68.59,44.6,87,75,14.99,CA,1597444548
82,east london,-33.02,27.91,62.92,30,0,4.85,ZA,1597444549
83,mar del plata,-38.0,-57.56,57.0,58,100,3.36,AR,1597444551
84,altay,47.87,88.12,56.59,79,100,1.25,CN,1597444552
85,lebu,-37.62,-73.65,46.24,67,60,8.25,CL,1597444553
86,beringovskiy,63.05,179.32,56.95,66,49,12.01,RU,1597444555
87,talnakh,69.49,88.4,59.0,72,2,13.42,RU,1597444556
88,basoko,1.24,23.62,74.3,92,100,2.98,CD,1597444557
89,faanui,-16.48,-151.75,78.82,79,9,15.84,PF,1597444558
90,margate,51.38,1.39,70.0,91,66,1.99,GB,1597444560
91,georgetown,5.41,100.34,78.8,94,20,2.24,MY,1597444286
92,severo-kurilsk,50.68,156.12,53.31,76,98,8.23,RU,1597444562
93,rawson,-43.3,-65.1,47.37,50,30,13.2,AR,1597444424
94,pontes e lacerda,-15.23,-59.34,85.87,29,8,4.12,BR,1597444565
95,ust-omchug,61.15,149.63,55.26,66,99,6.2,RU,1597444566
96,saint-georges,12.06,-61.75,84.2,74,20,13.87,GD,1597444568
97,te anau,-45.42,167.72,41.7,73,36,1.07,NZ,1597444569
98,aklavik,68.22,-135.01,53.6,87,90,5.82,CA,1597444570
99,namibe,-15.2,12.15,60.58,91,43,7.85,AO,1597444573
100,kiruna,67.86,20.23,53.6,81,100,4.7,SE,1597444574
101,bandundu,-3.32,17.37,83.61,49,43,4.34,CD,1597444576
102,new norfolk,-42.78,147.06,50.0,92,83,0.76,AU,1597444577
103,salcininkai,54.3,25.38,57.2,71,93,5.82,LT,1597444578
104,tasiilaq,65.61,-37.64,50.0,39,0,4.7,GL,1597444579
105,kisangani,0.52,25.2,72.66,90,100,2.64,CD,1597444582
106,tommot,58.96,126.29,50.86,67,92,5.08,RU,1597444583
107,jamestown,42.1,-79.24,80.01,54,1,8.05,US,1597444585
108,victoria,22.29,114.16,82.0,78,0,4.83,HK,1597444358
109,bethel,41.37,-73.41,82.99,51,20,5.82,US,1597444587
110,sorong,-0.88,131.25,77.79,87,98,8.1,ID,1597444589
111,khatanga,71.97,102.5,52.41,53,26,16.49,RU,1597444590
112,zalesovo,53.99,84.74,58.08,90,86,2.75,RU,1597444593
113,pangoa,-12.12,-73.0,75.42,74,19,1.97,PE,1597444594
114,iqaluit,63.75,-68.51,59.0,54,75,17.22,CA,1597444597
115,nanortalik,60.14,-45.24,43.41,81,96,8.37,GL,1597444598
116,yabelo,4.88,38.08,64.99,63,100,8.37,ET,1597444599
117,norman wells,65.28,-126.83,57.2,93,90,10.29,CA,1597444601
118,ketchikan,55.34,-131.65,59.0,100,90,17.22,US,1597444524
119,nikolsk,53.72,46.07,49.95,95,100,13.22,RU,1597444604
120,husavik,66.04,-17.34,55.4,35,0,21.92,IS,1597444606
121,dzheguta,43.97,42.04,50.77,82,43,3.69,RU,1597444607
122,mana,5.66,-53.78,80.02,83,5,12.37,GF,1597444608
123,saint-francois,46.42,3.91,64.4,82,6,2.24,FR,1597444612
124,port hedland,-20.32,118.57,53.6,87,0,5.82,AU,1597444614
125,puerto leguizamo,-0.19,-74.78,75.56,96,97,2.21,CO,1597444615
126,port blair,11.67,92.75,82.47,80,100,17.16,IN,1597444616
127,cockburn town,21.46,-71.14,86.0,70,40,14.99,TC,1597444519
128,saint-philippe,-21.36,55.77,68.0,68,90,6.93,RE,1597444600
129,guerrero negro,27.98,-114.06,83.62,43,7,13.67,MX,1597444620
130,nome,64.5,-165.41,55.99,76,75,18.34,US,1597444582
131,mbandaka,0.05,18.26,73.74,80,14,3.44,CD,1597444624
132,saldanha,-33.01,17.94,59.0,67,68,4.7,ZA,1597444603
133,castro,-24.79,-50.01,62.47,84,42,4.81,BR,1597444595
134,dawei,14.08,98.2,75.34,90,100,2.19,MM,1597444628
135,port lincoln,-34.73,135.87,54.3,78,4,8.77,AU,1597444631
136,mahebourg,-20.41,57.7,68.0,77,20,5.82,MU,1597444617
137,argayash,55.49,60.88,53.6,93,75,6.71,RU,1597444634
138,ayan,56.45,138.17,59.27,80,100,22.53,RU,1597444603
139,hope,33.67,-93.59,90.0,78,1,6.93,US,1597444638
140,ceres,37.59,-120.96,102.2,18,20,9.17,US,1597444639
141,fortuna,40.6,-124.16,99.0,56,1,5.82,US,1597444641
142,barrow,71.29,-156.79,51.8,76,1,13.87,US,1597444502
143,chingirlau,51.09,54.08,63.36,56,67,4.7,KZ,1597444643
144,santa vitoria do palmar,-33.52,-53.37,53.49,90,76,6.02,BR,1597444645
145,acajutla,13.59,-89.83,85.24,68,44,4.47,SV,1597444647
146,pisco,-13.7,-76.22,66.2,68,11,14.99,PE,1597444619
147,orsha,54.52,30.41,51.73,83,5,5.35,BY,1597444650
148,toora-khem,52.47,96.11,50.07,89,18,1.14,RU,1597444651
149,papara,-3.98,-38.73,79.0,74,42,11.41,BR,1597444652
150,aleksandrow lodzki,51.82,19.3,69.01,60,100,4.7,PL,1597444654
151,ilulissat,69.22,-51.1,42.8,56,17,4.7,GL,1597444612
152,misratah,32.38,15.09,79.11,71,0,4.38,LY,1597444657
153,thompson,55.74,-97.86,71.6,43,90,11.41,CA,1597444597
154,bambous virieux,-20.34,57.76,68.0,77,20,5.82,MU,1597444609
155,axim,4.87,-2.24,75.54,87,86,10.71,GH,1597444661
156,salinas,36.68,-121.66,100.0,25,1,17.22,US,1597444482
157,moose factory,51.26,-80.61,82.4,45,1,10.29,CA,1597444664
158,tecpan,14.76,-90.99,75.2,60,40,16.11,GT,1597444667
159,arraial do cabo,-22.97,-42.03,73.4,83,23,10.29,BR,1597444600
160,maraba,-5.37,-49.12,89.6,40,66,4.7,BR,1597444671
161,havoysund,71.0,24.66,51.8,100,75,18.34,NO,1597444663
162,tessalit,20.2,1.01,97.48,17,9,5.03,ML,1597444646
163,lavrentiya,65.58,-171.0,58.59,59,88,7.67,RU,1597444610
164,pevek,69.7,170.31,44.92,78,100,12.91,RU,1597444618
165,port moresby,-9.44,147.18,77.0,83,75,17.22,PG,1597444678
166,abu dhabi,24.47,54.37,91.4,79,20,4.7,AE,1597444533
167,rafsanjan,30.41,55.99,77.63,18,50,5.3,IR,1597444680
168,comodoro rivadavia,-45.87,-67.5,48.2,49,75,9.17,AR,1597444682
169,nuevo casas grandes,30.42,-107.92,95.11,16,19,4.09,MX,1597444683
170,ponta do sol,32.67,-17.1,73.4,64,20,8.05,PT,1597444629
171,esperance,-33.87,121.9,44.6,100,34,10.29,AU,1597444624
172,kodiak,57.79,-152.41,69.8,40,1,10.29,US,1597444633
173,independence,39.09,-94.42,91.4,52,40,6.93,US,1597444688
174,skala,50.23,19.85,66.0,68,61,6.93,PL,1597444690
175,taoudenni,22.68,-3.98,101.64,22,12,8.99,ML,1597444613
176,okha,53.57,142.95,58.53,81,77,13.91,RU,1597444692
177,asau,46.43,26.4,55.99,89,0,2.39,RO,1597444693
178,calama,-22.47,-68.93,60.8,11,0,23.04,CL,1597444457
179,chokurdakh,70.63,147.92,38.43,86,100,5.57,RU,1597444608
180,obihiro,42.92,143.2,62.8,94,100,8.05,JP,1597444697
181,malabo,3.75,8.78,77.0,100,20,6.93,GQ,1597444698
182,sao felix do xingu,-6.64,-51.99,81.72,32,41,1.95,BR,1597444700
183,muyezerskiy,63.93,31.65,52.65,94,99,8.7,RU,1597444701
184,port augusta,-32.5,137.77,46.99,100,35,8.05,AU,1597444702
185,ust-tsilma,65.44,52.15,40.19,84,4,2.84,RU,1597444704
186,chernyshevskiy,63.01,112.47,44.71,79,100,4.85,RU,1597444705
187,souillac,-20.52,57.52,68.0,77,20,5.82,MU,1597444594
188,bredasdorp,-34.53,20.04,59.0,54,0,17.22,ZA,1597444595
189,kushima,31.46,131.23,84.2,66,20,9.17,JP,1597444710
190,taltal,-25.4,-70.48,54.5,69,13,6.2,CL,1597444712
191,leningradskiy,69.38,178.42,61.54,43,37,14.18,RU,1597444596
192,mezen,65.85,44.24,49.15,66,97,8.08,RU,1597444714
193,miandrivazo,-19.52,45.47,67.5,55,1,3.13,MG,1597444716
194,coihaique,-45.58,-72.07,33.8,94,75,2.24,CL,1597444614
195,sakakah,29.97,40.21,87.8,15,0,12.75,SA,1597444720
196,porbandar,21.64,69.61,80.37,89,100,18.16,IN,1597444721
197,ribeira grande,38.52,-28.7,73.17,80,61,11.16,PT,1597444722
198,marion,39.77,-86.16,86.0,40,40,3.36,US,1597444534
199,aktas,49.78,72.96,48.2,93,90,4.47,KZ,1597444725
200,ugoofaaru,5.67,73.0,81.77,77,97,10.69,MV,1597444728
201,poltavskaya,45.36,38.22,60.01,75,0,1.01,RU,1597444729
202,tres arroyos,-38.37,-60.28,46.06,76,84,8.21,AR,1597444732
203,tuatapere,-46.13,167.68,39.99,91,20,3.0,NZ,1597444680
204,alofi,-19.06,-169.92,78.8,83,26,8.05,NU,1597444634
205,stephenville,32.22,-98.2,105.8,20,1,5.82,US,1597444736
206,gaogou,34.02,119.19,80.69,90,100,7.45,CN,1597444738
207,spoleto,42.74,12.74,73.0,72,5,9.17,IT,1597444739
208,nalut,30.33,10.85,80.08,26,0,11.88,LY,1597444741
209,katherine,-14.47,132.27,71.6,78,63,5.5,AU,1597444506
210,upernavik,72.79,-56.15,40.78,68,1,12.1,GL,1597444765
211,sorland,67.67,12.69,55.4,87,75,5.82,NO,1597444656
212,eirunepe,-6.66,-69.87,81.54,70,64,1.95,BR,1597444768
213,goderich,43.75,-81.72,84.0,44,0,1.99,CA,1597444681
214,sao filipe,14.9,-24.5,77.95,87,81,5.75,CV,1597444771
215,sarangani,5.4,125.46,83.61,72,92,9.37,PH,1597444772
216,yuzhno-kurilsk,44.03,145.86,57.85,94,100,12.03,RU,1597444774
217,saint anthony,45.02,-93.22,84.99,62,40,20.8,US,1597444775
218,aleksinac,43.54,21.71,73.4,78,83,5.82,RS,1597444777
219,zavodouspenskoye,56.86,65.02,50.0,87,100,5.19,RU,1597444505
220,henties bay,-22.12,14.28,55.0,94,0,3.0,NA,1597444779
221,show low,34.25,-110.03,93.0,11,1,5.82,US,1597444781
222,labuhan,-6.88,112.21,76.95,89,5,6.22,ID,1597444622
223,trogir,43.51,16.25,79.0,54,63,3.36,HR,1597444784
224,ranfurly,-45.13,170.1,39.99,81,0,1.01,NZ,1597444650
225,vizinga,61.07,50.1,41.72,91,7,4.41,RU,1597444787
226,tazovskiy,67.47,78.7,46.6,87,100,15.12,RU,1597444788
227,kharp,66.8,65.81,42.98,83,0,7.56,RU,1597444789
228,boa vista,2.82,-60.67,87.8,62,20,9.17,BR,1597444791
229,tiksi,71.69,128.87,39.61,86,100,9.89,RU,1597444610
230,codrington,-38.27,141.97,48.16,94,54,7.16,AU,1597444681
231,vallenar,-28.57,-70.76,59.38,45,0,1.79,CL,1597444796
232,watertown,42.37,-71.18,80.6,53,84,11.41,US,1597444797
233,el cobre,20.05,-75.95,84.2,83,20,9.17,CU,1597444799
234,lagoa,39.05,-27.98,73.29,77,53,12.1,PT,1597444800
235,hofn,64.25,-15.21,56.08,46,18,6.89,IS,1597444679
236,port-gentil,-0.72,8.78,77.0,83,90,15.7,GA,1597444744
237,coahuayana,18.73,-103.68,80.6,78,75,9.17,MX,1597444806
238,caravelas,-17.71,-39.25,71.8,84,0,7.0,BR,1597444808
239,oranjemund,-28.55,16.43,53.44,91,0,4.43,NA,1597444809
240,lompoc,34.64,-120.46,98.6,30,1,6.93,US,1597444671
241,ahipara,-35.17,173.17,56.88,74,15,7.83,NZ,1597444812
242,buchanan,5.88,-10.05,75.2,94,75,8.25,LR,1597444647
243,mombetsu,44.35,143.35,63.86,91,97,6.49,JP,1597444815
244,kavaratti,10.57,72.64,82.33,77,100,19.73,IN,1597444682
245,shenjiamen,29.96,122.3,80.83,87,0,16.84,CN,1597444818
246,sioux lookout,50.1,-91.92,75.2,78,90,4.7,CA,1597444819
247,bilibino,68.05,166.44,49.14,75,100,14.05,RU,1597444682
248,lichinga,-13.31,35.24,60.8,67,75,4.7,MZ,1597444821
249,nouadhibou,20.93,-17.03,73.4,78,2,16.11,MR,1597444823
250,mangrol,21.12,70.12,79.83,90,100,19.3,IN,1597444824
251,buala,-8.14,159.59,83.7,69,51,3.27,SB,1597444825
252,meulaboh,4.14,96.13,77.05,81,82,4.16,ID,1597444827
253,tamandare,-8.76,-35.1,72.91,83,2,4.63,BR,1597444829
254,saint george,37.1,-113.58,106.0,12,1,8.05,US,1597444830
255,vardo,70.37,31.11,53.6,81,75,4.7,NO,1597444616
256,rio grande,-32.03,-52.1,59.0,89,76,4.0,BR,1597444837
257,flin flon,54.77,-101.86,75.2,38,75,11.41,CA,1597444838
258,matara,5.95,80.54,76.66,91,97,8.7,LK,1597444622
259,santa isabel do rio negro,-0.41,-65.02,81.41,61,18,2.57,BR,1597444840
260,khasan,42.43,130.64,74.55,78,40,2.71,RU,1597444842
261,angoche,-16.23,39.91,69.12,78,17,8.77,MZ,1597444619
262,manchester,53.48,-2.24,64.0,82,91,11.41,GB,1597444846
263,dayong,25.02,118.29,82.4,74,75,6.71,CN,1597444847
264,sarkand,45.41,79.92,62.06,31,88,5.95,KZ,1597444848
265,seoul,37.57,126.98,77.0,100,90,6.13,KR,1597444841
266,mancio lima,-7.61,-72.9,81.34,69,100,3.29,BR,1597444851
267,celestun,20.87,-90.4,84.69,70,70,16.35,MX,1597444852
268,chinsali,-10.54,32.08,55.65,69,9,7.78,ZM,1597444855
269,marzuq,14.4,46.47,86.31,29,97,0.98,YE,1597444857
270,hasaki,35.73,140.83,84.0,94,20,3.36,JP,1597444630
271,porto novo,6.5,2.6,75.2,94,40,6.93,BJ,1597444859
272,moerai,-22.43,-151.33,70.75,75,0,14.14,PF,1597444862
273,tshela,-4.98,12.93,69.3,87,24,3.76,CD,1597444863
274,storsteinnes,69.24,19.23,54.0,87,100,18.34,NO,1597444865
275,tavda,58.04,65.27,44.19,87,99,3.42,RU,1597444867
276,yulara,-25.24,130.99,41.0,75,0,4.7,AU,1597444684
277,marsa matruh,31.35,27.25,77.0,78,0,5.82,EG,1597444724
278,manggar,-2.88,108.27,80.42,82,40,8.52,ID,1597444871
279,jiwani,25.05,61.74,82.44,81,76,5.68,PK,1597444872
280,wawa,9.9,4.42,71.01,96,100,6.06,NG,1597444873
281,sumy,50.92,34.8,50.25,90,0,4.54,UA,1597444875
282,areia branca,-4.96,-37.14,79.95,61,15,23.2,BR,1597444876
283,kruisfontein,-34.0,24.73,45.0,88,0,3.78,ZA,1597444678
284,cherskiy,68.75,161.3,45.41,74,97,16.02,RU,1597444624
285,richards bay,-28.78,32.04,65.23,65,0,16.33,ZA,1597444882
286,senador jose porfirio,-2.59,-51.95,85.23,54,97,4.03,BR,1597444884
287,lovozero,68.0,35.01,44.28,94,100,0.89,RU,1597444885
288,poum,-20.23,164.02,70.47,70,9,8.14,NC,1597444667
289,san cristobal,7.77,-72.22,82.4,69,40,3.36,VE,1597444888
290,grootfontein,-19.57,18.12,50.83,43,0,4.07,NA,1597444889
291,jardim,-21.48,-56.14,85.15,34,93,4.36,BR,1597444891
292,kanchanaburi,14.63,99.1,73.17,89,100,1.48,TH,1597444892
293,cabo san lucas,22.89,-109.91,84.99,66,40,9.17,MX,1597444893
294,teguise,29.06,-13.56,73.4,73,20,17.22,ES,1597444895
295,gorontalo,0.54,123.06,75.04,78,20,1.81,ID,1597444896
296,puerto escondido,15.85,-97.07,87.8,58,75,6.93,MX,1597444897
297,ourossogui,15.61,-13.32,89.96,53,91,9.95,SN,1597444899
298,vestmannaeyjar,63.44,-20.27,51.19,86,26,4.94,IS,1597444900
299,serafimovskiy,54.42,53.8,50.18,95,16,2.62,RU,1597444901
300,penzance,50.12,-5.54,64.99,100,100,8.05,GB,1597444903
301,bengkulu,-3.8,102.27,75.83,80,27,4.74,ID,1597444393
302,saint-augustin,51.23,-58.65,57.02,59,1,4.54,CA,1597444608
303,tuktoyaktuk,69.45,-133.04,51.8,76,75,4.7,CA,1597444621
304,acapulco,16.86,-99.89,87.8,70,75,13.87,MX,1597444622
305,mildura,-34.2,142.15,48.99,100,40,4.7,AU,1597444910
306,vagur,61.47,-6.81,52.66,95,79,17.27,FO,1597444911
307,zyryanka,65.75,150.85,49.84,60,31,11.83,RU,1597444913
308,bonfim,3.08,-59.95,80.65,78,89,4.54,BR,1597444914
309,vao,-22.67,167.48,67.71,75,18,18.72,NC,1597444611
310,quincy,42.25,-71.0,80.01,53,100,11.41,US,1597444743
311,magadi,12.97,77.23,69.8,100,90,10.29,IN,1597444918
312,maceio,-9.67,-35.74,69.8,100,20,5.82,BR,1597444920
313,fort nelson,58.81,-122.7,68.0,49,75,10.29,CA,1597444915
314,sao jose da coroa grande,-8.9,-35.15,73.0,83,2,4.83,BR,1597444922
315,ostrovnoy,68.05,39.51,51.73,90,100,14.03,RU,1597444612
316,marawi,8.0,124.29,75.0,87,90,7.0,PH,1597444615
317,provideniya,64.38,-173.3,55.87,62,74,8.19,RU,1597444611
318,teya,60.38,92.63,55.51,81,44,3.06,RU,1597444930
319,payo,-3.75,103.64,71.51,93,52,1.68,ID,1597444932
320,tall kayf,37.08,41.07,79.79,29,0,10.51,TR,1597444933
321,singkang,2.1,102.8,77.0,88,20,2.24,MY,1597444934
322,kununurra,-15.77,128.73,66.2,30,49,7.16,AU,1597444672
323,rochegda,62.8,43.25,44.22,97,8,3.06,RU,1597444937
324,cap malheureux,-19.98,57.61,64.99,78,5,5.01,MU,1597444938
325,george town,5.41,100.34,78.8,94,20,2.24,MY,1597444939
326,lewistown,40.6,-77.57,87.8,38,1,10.29,US,1597444941
327,almaznyy,48.04,40.05,57.2,58,0,6.71,RU,1597444942
328,bardiyah,31.76,25.09,77.2,74,0,13.24,LY,1597444944
329,santa rosa,14.31,121.11,78.8,88,87,0.98,PH,1597444945
330,klaksvik,62.23,-6.59,53.6,100,76,5.82,FO,1597444634
331,hirado,33.36,129.55,89.01,88,40,3.36,JP,1597444948
332,along,28.17,94.77,72.18,89,98,0.85,IN,1597444949
333,talegaon dabhade,18.72,73.68,71.08,94,100,12.8,IN,1597444951
334,xining,36.62,101.77,52.0,79,48,1.03,CN,1597444952
335,la grande,45.32,-118.09,82.4,17,1,5.17,US,1597444872
336,maple creek,49.92,-109.48,76.82,24,63,14.56,CA,1597444956
337,tyrma,50.08,132.17,62.38,94,99,2.89,RU,1597444958
338,kalavai,12.77,79.42,79.43,66,100,9.28,IN,1597444960
339,pacific grove,36.62,-121.92,100.0,33,1,4.7,US,1597444961
340,gravdal,68.12,13.5,55.4,87,75,5.82,NO,1597444648
341,casma,-41.01,-73.12,46.4,75,100,11.41,CL,1597444964
342,les cayes,18.2,-73.75,83.57,77,53,5.86,HT,1597444965
343,mango,27.98,-82.31,91.0,70,1,4.38,US,1597444967
344,hanna,51.63,-111.9,72.0,30,33,8.01,CA,1597444968
345,egvekinot,66.32,-179.17,55.74,64,100,8.95,RU,1597444969
346,maniitsoq,65.42,-52.9,43.86,87,61,13.87,GL,1597444971
347,bere,9.32,16.16,74.19,90,67,3.4,TD,1597444972
348,banff,51.18,-115.57,64.99,44,90,21.0,CA,1597444973
349,ligayan,4.65,119.47,83.21,69,61,2.26,PH,1597444974
350,la rioja,42.25,-2.5,71.6,78,29,4.7,ES,1597444976
351,cidreira,-30.18,-50.21,60.55,96,81,13.94,BR,1597444626
352,rorvik,64.86,11.24,56.79,84,55,22.62,NO,1597444978
353,semey,50.41,80.23,57.04,77,63,3.67,KZ,1597444980
354,yeppoon,-23.13,150.73,64.4,93,75,3.36,AU,1597444981
355,boulder city,35.98,-114.83,109.99,9,1,9.4,US,1597444983
356,sola,-13.88,167.55,82.4,83,90,15.48,VU,1597444657
357,nizhniy odes,63.64,54.86,42.67,92,53,4.5,RU,1597444985
358,deputatskiy,69.3,139.9,33.13,93,100,9.4,RU,1597444986
359,sabzevar,36.21,57.68,78.39,26,0,6.93,IR,1597444988
360,cayenne,4.93,-52.33,84.2,70,1,8.05,GF,1597444601
361,imeni poliny osipenko,52.42,136.49,60.75,95,100,4.47,RU,1597444991
362,yamada,39.47,141.95,81.0,74,76,5.01,JP,1597444992
363,remedios,22.49,-79.55,87.8,70,75,14.99,CU,1597444993
364,klyuchi,52.27,79.17,54.12,87,7,3.8,RU,1597444995
365,soyo,-6.13,12.37,71.94,85,10,8.68,AO,1597444996
366,zitose,41.42,21.29,73.4,73,0,2.48,MK,1597444997
367,broken hill,-31.95,141.43,51.73,78,0,8.72,AU,1597444999
368,prince rupert,54.32,-130.32,60.8,93,90,5.82,CA,1597445000
369,astana,51.18,71.45,50.0,87,83,4.47,KZ,1597444708
370,xiaolan,22.67,113.23,81.0,91,0,4.56,CN,1597445003
371,fuerte olimpo,-21.04,-57.87,86.68,31,40,5.41,PY,1597445004
372,florenville,49.7,5.31,64.99,85,0,1.57,BE,1597445007
373,beloha,-25.17,45.05,57.7,85,0,5.82,MG,1597444651
374,sangueya,10.7,-14.37,74.59,94,54,2.01,GN,1597445009
375,shingu,33.73,135.98,86.76,64,0,2.37,JP,1597445011
376,svetlogorsk,52.63,29.73,51.13,86,81,1.74,BY,1597445012
377,togur,58.36,82.83,55.4,97,15,4.47,RU,1597444655
378,rafaela,-31.25,-61.49,64.0,36,0,7.16,AR,1597444751
379,yongan,39.7,113.69,64.42,72,100,5.59,CN,1597445016
380,oktyabrskoye,43.06,44.74,60.8,93,99,4.47,RU,1597445017
381,arman,59.7,150.17,57.16,82,100,2.55,RU,1597445019
382,los llanos de aridane,28.66,-17.92,75.2,69,75,16.11,ES,1597445020
383,santiago de cuba,20.02,-75.82,84.2,83,20,9.17,CU,1597445021
384,kenscoff,18.45,-72.29,89.6,66,45,11.41,HT,1597445023
385,bodden town,19.28,-81.25,88.0,79,20,9.17,KY,1597445026
386,fuling,29.7,107.39,77.02,80,91,3.89,CN,1597445027
387,raudeberg,61.99,5.14,53.01,93,39,11.56,NO,1597445029
388,unai,-16.36,-46.91,73.2,40,0,3.6,BR,1597445030
389,feltre,46.02,11.91,62.01,98,100,5.14,IT,1597445031
390,salalah,17.02,54.09,78.8,88,75,5.82,OM,1597444610
391,la victoria,10.22,-67.33,77.0,65,70,2.77,VE,1597445034
392,filadelfia,39.95,-75.16,84.99,48,75,13.87,US,1597444396
393,nemuro,43.32,145.57,58.69,95,99,14.05,JP,1597445037
394,west plains,36.73,-91.85,89.6,52,40,5.82,US,1597445038
395,ankang,32.68,109.02,77.34,84,90,0.58,CN,1597445039
396,kitimat,54.05,-128.65,57.99,95,100,4.12,CA,1597444809
397,chiheru de jos,46.68,24.88,64.4,72,4,3.36,RO,1597445043
398,brae,60.4,-1.35,51.8,93,2,9.17,GB,1597445044
399,ormara,25.21,64.64,83.07,83,94,7.74,PK,1597445046
400,juneau,58.3,-134.42,53.6,93,90,4.7,US,1597445047
401,maumee,41.56,-83.65,78.8,83,90,13.87,US,1597445048
402,cairns,-16.92,145.77,69.8,77,34,2.24,AU,1597445050
403,sobolevo,54.43,31.9,49.44,86,31,3.78,RU,1597445051
404,taber,49.82,-112.15,75.2,25,20,5.82,CA,1597445052
405,havelock,34.88,-76.9,84.2,83,75,8.05,US,1597445053
406,ndele,8.41,20.65,72.12,94,100,1.43,CF,1597445055
407,salamiyah,35.01,37.05,70.32,69,0,7.83,SY,1597445056
408,isaka,-3.9,32.93,64.99,52,11,1.03,TZ,1597445057
409,mount gambier,-37.83,140.77,48.2,93,75,1.12,AU,1597445059
410,umm lajj,25.02,37.27,83.1,71,94,4.52,SA,1597445060
411,puerto baquerizo moreno,-0.9,-89.6,66.56,90,100,13.09,EC,1597445061
412,paray-le-monial,46.45,4.12,64.4,82,2,2.24,FR,1597445062
413,luderitz,-26.65,15.16,56.91,73,0,18.1,NA,1597444605
414,itupiranga,-5.13,-49.33,89.6,40,85,4.7,BR,1597445065
415,pakokku,21.33,95.1,78.8,82,100,15.21,MM,1597445066
416,nueva loja,0.08,-76.88,71.6,100,90,2.24,EC,1597445069
417,khandbari,27.37,87.2,74.14,72,99,0.34,NP,1597444637
418,rawah,34.48,41.91,81.09,21,0,13.47,IQ,1597445072
419,nuevo progreso,23.17,-97.95,90.0,54,0,5.01,MX,1597445073
420,ak-dovurak,51.18,90.6,53.42,76,95,0.83,RU,1597445076
421,choix,26.71,-108.32,91.51,59,81,4.21,MX,1597445077
422,urumqi,43.8,87.6,64.4,68,8,8.95,CN,1597445043
423,kavieng,-2.57,150.8,83.88,68,100,3.2,PG,1597444592
424,makakilo city,21.35,-158.09,87.8,58,75,10.29,US,1597445081
425,kachiry,53.07,76.1,52.23,86,10,4.47,KZ,1597445082
426,key biscayne,25.69,-80.16,89.01,66,40,8.05,US,1597444933
427,witu,-2.39,40.44,73.92,72,72,11.21,KE,1597445085
428,udupi,13.35,74.75,78.8,88,75,6.93,IN,1597445086
429,mogadishu,2.04,45.34,75.52,83,80,20.27,SO,1597445087
430,siauliai,55.93,23.32,59.0,82,2,1.7,LT,1597445088
431,shenzhen,22.55,114.07,82.99,83,40,6.71,CN,1597444820
432,dodge city,37.75,-100.02,91.4,52,1,11.41,US,1597445091
433,taos,36.41,-105.57,87.8,19,1,6.93,US,1597445092
434,bouca,6.51,18.27,70.72,94,50,1.34,CF,1597445094
435,roanoke,37.27,-79.94,75.0,88,90,8.05,US,1597444914
436,leshukonskoye,64.9,45.76,43.83,80,95,4.07,RU,1597445097
437,cheremnoye,53.17,83.21,59.0,87,75,4.47,RU,1597445098
438,xucheng,20.35,110.13,75.2,94,0,2.24,CN,1597445099
439,antalaha,-14.9,50.28,69.93,82,94,7.83,MG,1597445101
440,amberley,39.2,-84.43,82.4,65,20,6.76,US,1597445100
441,bonavista,48.65,-53.11,55.99,86,96,5.99,CA,1597445103
442,albion,42.24,-84.75,80.6,65,1,8.05,US,1597444872
443,verkhniy fiagdon,42.83,44.31,60.8,87,92,4.47,RU,1597445106
444,luwingu,-10.26,29.93,54.12,53,32,6.24,ZM,1597445107
445,hambantota,6.12,81.12,75.2,100,100,3.36,LK,1597444649
446,napier,-39.48,176.92,48.31,57,6,3.09,NZ,1597445110
447,kaeo,-35.1,173.78,54.0,3,58,1.99,NZ,1597444670
448,pangai,-19.8,-174.35,75.2,69,40,10.29,TO,1597445113
449,asheville,35.6,-82.55,79.0,88,19,1.81,US,1597444853
450,kitim,32.44,35.9,77.0,36,0,11.41,JO,1597445115
451,huazhou,21.63,110.58,78.24,93,22,3.22,CN,1597444991
452,vanavara,60.34,102.28,46.72,69,0,7.96,RU,1597445118
453,nago,26.59,127.98,82.4,83,1,4.7,JP,1597445119
454,kualakapuas,-3.01,114.39,77.0,94,40,2.24,ID,1597445121
455,yumen,40.28,97.2,63.82,51,14,3.71,CN,1597444617
456,anjozorobe,-18.4,47.87,50.0,76,20,3.36,MG,1597445124
457,lata,40.16,-8.33,64.99,93,0,1.61,PT,1597444658
458,dunedin,-45.87,170.5,45.0,68,0,11.01,NZ,1597444673
459,kikwit,-5.04,18.82,79.63,43,13,0.29,CD,1597445128
460,saint-pierre,-21.34,55.48,68.0,68,75,5.82,RE,1597445129
461,leh,34.17,77.58,61.77,42,1,6.02,IN,1597445130
462,shasta lake,40.68,-122.37,108.0,12,60,4.0,US,1597445131
463,krasnoselkup,65.7,82.47,59.5,96,100,4.83,RU,1597445133
464,seddon,-37.81,144.89,52.0,100,0,3.36,AU,1597445134
465,tura,25.52,90.22,74.84,96,100,6.04,IN,1597444624
466,sindi,20.8,78.87,74.8,92,100,11.1,IN,1597445138
467,luan,46.36,6.98,66.2,77,16,2.95,CH,1597445139
468,presidente medici,-11.18,-61.9,88.07,29,34,3.09,BR,1597445141
469,mexico,15.06,120.72,78.8,94,75,5.82,PH,1597445142
470,port hardy,50.7,-127.42,64.4,77,75,12.75,CA,1597445143
471,saint-denis,48.92,2.33,68.0,88,75,1.12,FR,1597445145
472,benghazi,32.12,20.07,79.3,81,0,12.24,LY,1597445146
473,mutoko,-17.4,32.23,48.33,95,0,3.18,ZW,1597445147
474,karratha,-20.74,116.85,62.58,48,0,8.52,AU,1597444561
475,pangnirtung,66.15,-65.71,51.8,71,40,13.87,CA,1597444624
476,geraldton,-28.77,114.6,50.0,76,0,11.41,AU,1597444596
477,olinda,-8.01,-34.86,77.0,73,40,8.05,BR,1597444896
478,port keats,-14.25,129.55,75.38,84,23,3.89,AU,1597445153
479,solnechnyy,50.72,136.63,57.29,95,100,3.44,RU,1597445155
480,mayma,52.02,85.91,59.32,89,100,1.83,RU,1597445156
481,manguito,22.59,-80.91,84.2,80,41,7.67,CU,1597445159
482,sibolga,1.74,98.78,75.9,76,96,3.31,ID,1597445160
483,martapura,-3.42,114.85,75.2,100,90,1.12,ID,1597445140
484,letnyaya stavka,45.43,43.45,61.0,53,14,4.0,RU,1597445164
485,akdepe,42.06,59.38,73.4,43,0,6.93,TM,1597445165
486,carauari,-4.88,-66.9,84.13,61,95,1.3,BR,1597445166
487,xochihuehuetlan,17.92,-98.43,84.02,44,68,4.83,MX,1597445168
488,ixtapa,20.7,-105.2,89.6,62,75,6.93,MX,1597444607
489,inta,66.03,60.17,36.14,90,1,0.96,RU,1597444599
490,waingapu,-9.66,120.26,75.31,79,0,8.7,ID,1597445171
491,vega de alatorre,20.03,-96.63,84.02,68,42,5.12,MX,1597445173
492,lerwick,60.15,-1.15,51.8,93,1,9.17,GB,1597445176
493,nhulunbuy,-12.23,136.77,77.0,78,83,4.7,AU,1597445178
494,auki,-8.77,160.7,84.85,65,9,3.78,SB,1597445179
495,anadyr,64.75,177.48,55.4,71,87,8.95,RU,1597444644
496,kashmor,28.43,69.58,93.63,55,5,10.13,PK,1597445182
497,marsh harbour,26.54,-77.06,84.74,61,0,6.67,BS,1597445184
498,ios,36.73,25.28,80.01,65,0,17.22,GR,1597445185
499,ntcheu,-14.82,34.64,55.04,87,16,2.15,MW,1597445186
500,chancay,-11.57,-77.27,62.6,72,90,4.7,PE,1597445188
501,northam,51.03,-4.22,66.0,92,91,1.99,GB,1597445116
502,zhezkazgan,47.8,67.71,64.65,53,46,6.55,KZ,1597445191
503,mukhen,48.1,136.1,63.09,93,100,5.26,RU,1597445192
504,pyu,18.48,96.43,74.32,97,100,8.32,MM,1597445193
505,miles city,46.41,-105.84,80.6,15,1,18.34,US,1597445194
506,kalmunai,7.42,81.82,78.69,79,100,4.54,LK,1597445196
507,hovd,48.01,91.64,61.88,56,100,7.4,MN,1597445197
508,williams lake,52.14,-122.14,64.4,55,90,5.82,CA,1597444925
509,vaitape,-16.52,-151.75,79.65,78,8,15.84,PF,1597445200
510,ellensburg,47.0,-120.55,88.0,18,1,5.82,US,1597445201
511,tomelloso,39.15,-3.02,70.0,31,0,1.99,ES,1597445203
512,tambopata,-12.73,-69.18,83.82,60,73,2.48,PE,1597445204
513,plettenberg bay,-34.05,23.37,53.24,71,0,5.46,ZA,1597445206
514,north bend,43.41,-124.22,89.01,56,1,26.4,US,1597445209
515,padang,-0.95,100.35,77.95,71,98,4.68,ID,1597444627
516,langres,47.83,5.33,66.2,88,2,2.24,FR,1597445212
517,conde,-7.26,-34.91,73.4,88,20,6.93,BR,1597445006
518,kamaishi,39.27,141.88,79.77,76,64,6.02,JP,1597445215
519,zhigansk,66.77,123.37,44.08,73,56,19.89,RU,1597445216
520,illescas,40.12,-3.85,81.0,49,0,8.05,ES,1597445217
521,mattru,7.62,-11.83,74.79,87,100,3.58,SL,1597445219
522,anchorage,61.22,-149.9,64.0,59,75,5.82,US,1597445104
523,soe,-9.86,124.28,64.99,80,1,3.18,ID,1597445221
524,naze,28.37,129.48,84.2,83,20,2.24,JP,1597445222
525,tabas,33.6,56.92,91.4,17,0,4.7,IR,1597445224
526,colares,38.8,-9.45,66.99,77,20,6.93,PT,1597445225
527,itapirapua,-15.82,-50.61,79.54,30,0,3.22,BR,1597445226
528,sistranda,63.73,8.83,57.2,87,40,10.29,NO,1597445228
529,kieta,-6.22,155.63,83.68,68,100,3.49,PG,1597445230
530,dakar,14.69,-17.44,82.4,83,40,11.56,SN,1597444968
531,omsukchan,62.53,155.8,52.12,77,100,3.24,RU,1597444676
532,rio de jesus,7.98,-81.16,76.33,93,100,3.4,PA,1597445233
533,aksarka,66.56,67.8,43.11,82,60,4.97,RU,1597445235
534,broome,42.25,-75.83,80.01,54,75,5.82,US,1597445236
535,suntar,62.14,117.63,46.9,71,6,4.18,RU,1597445237
536,cernay,47.81,7.18,69.01,94,23,3.02,FR,1597445239
537,alta floresta,-9.88,-56.09,84.02,25,22,3.62,BR,1597445241
538,zapolyarnyy,69.42,30.81,53.6,87,90,14.99,RU,1597445242
539,giovinazzo,41.19,16.67,82.0,50,0,5.82,IT,1597445245
540,nagato,34.38,131.2,84.2,79,20,8.05,JP,1597445246
541,hami,42.8,93.45,69.89,51,67,12.53,CN,1597445247
542,dubrovytsya,51.57,26.57,54.36,81,87,5.61,UA,1597445249
543,ponta delgada,37.73,-25.67,71.6,83,20,8.05,PT,1597445161
544,honningsvag,70.98,25.97,52.05,94,100,9.13,NO,1597445251
545,ust-kut,56.79,105.77,49.57,64,0,3.36,RU,1597445253
546,chernyanka,50.94,37.81,49.5,84,0,6.13,RU,1597445155
547,cam ranh,11.92,109.16,78.8,88,20,3.36,VN,1597445131
548,yashkul,46.17,45.34,64.89,47,6,8.68,RU,1597445258
549,yar-sale,66.83,70.83,45.59,79,30,8.23,RU,1597444385
550,bathsheba,13.22,-59.52,82.4,74,20,10.29,BB,1597445260
551,rio gallegos,-51.62,-69.22,35.6,69,100,2.24,AR,1597445262
552,sri aman,1.24,111.46,75.2,94,51,0.43,MY,1597445263
553,tartagal,-22.52,-63.8,68.5,35,0,4.36,AR,1597445265
554,moron,-34.65,-58.62,61.0,70,52,1.74,AR,1597445267
555,whitefish bay,43.11,-87.9,84.0,37,5,8.05,US,1597445268
556,praia,14.92,-23.51,77.0,94,90,1.12,CV,1597445270
557,lae,-6.72,146.98,73.4,88,20,4.7,PG,1597445271
558,pouembout,-21.13,164.9,74.32,56,2,7.23,NC,1597445272
559,dinguiraye,11.3,-10.72,72.39,97,86,3.62,GN,1597445274
